header: 
  seq: 4633
  stamp: 
    secs: 1503524762
    nsecs: 107761000
  frame_id: /map
pose: 
  position: 
    x: -0.837503433228
    y: 15.7918014526
    z: 0.407900691032
  orientation: 
    x: -0.0381498297842
    y: 0.102318509273
    z: 0.109387159958
    w: 0.987982774336
---
header: 
  seq: 4634
  stamp: 
    secs: 1503524762
    nsecs: 212601000
  frame_id: /map
pose: 
  position: 
    x: -0.831980347633
    y: 15.8072853088
    z: 0.409445643425
  orientation: 
    x: -0.0378579731614
    y: 0.102148479724
    z: 0.109498472893
    w: 0.987999264368
---
header: 
  seq: 4635
  stamp: 
    secs: 1503524762
    nsecs: 317431000
  frame_id: /map
pose: 
  position: 
    x: -0.835287809372
    y: 15.7934398651
    z: 0.400059103966
  orientation: 
    x: -0.0383170747736
    y: 0.102118009716
    z: 0.109404304988
    w: 0.987995147722
---
header: 
  seq: 4636
  stamp: 
    secs: 1503524762
    nsecs: 422290000
  frame_id: /map
pose: 
  position: 
    x: -0.847963094711
    y: 15.8011274338
    z: 0.408903002739
  orientation: 
    x: -0.0379865422289
    y: 0.102290719897
    z: 0.109261285357
    w: 0.988005871822
---
header: 
  seq: 4637
  stamp: 
    secs: 1503524762
    nsecs: 527184000
  frame_id: /map
pose: 
  position: 
    x: -0.828981757164
    y: 15.7930583954
    z: 0.394779205322
  orientation: 
    x: -0.0384631747639
    y: 0.101798314875
    z: 0.109090772837
    w: 0.988057129197
---
header: 
  seq: 4638
  stamp: 
    secs: 1503524762
    nsecs: 631958000
  frame_id: /map
pose: 
  position: 
    x: -0.834670186043
    y: 15.8087425232
    z: 0.410481929779
  orientation: 
    x: -0.0379382244557
    y: 0.102425034755
    z: 0.109257682572
    w: 0.987994211612
---
header: 
  seq: 4639
  stamp: 
    secs: 1503524762
    nsecs: 736943000
  frame_id: /map
pose: 
  position: 
    x: -0.83066868782
    y: 15.8019943237
    z: 0.405902862549
  orientation: 
    x: -0.0377653767304
    y: 0.10219732648
    z: 0.109167322009
    w: 0.98803440152
---
header: 
  seq: 4640
  stamp: 
    secs: 1503524762
    nsecs: 841662000
  frame_id: /map
pose: 
  position: 
    x: -0.845777273178
    y: 15.7992649078
    z: 0.407093405724
  orientation: 
    x: -0.0382607846339
    y: 0.102514115595
    z: 0.109031824421
    w: 0.987997484676
---
header: 
  seq: 4641
  stamp: 
    secs: 1503524762
    nsecs: 946489000
  frame_id: /map
pose: 
  position: 
    x: -0.827937960625
    y: 15.8047161102
    z: 0.408201217651
  orientation: 
    x: -0.0376233666176
    y: 0.102211558835
    z: 0.108967132286
    w: 0.98806044532
---
header: 
  seq: 4642
  stamp: 
    secs: 1503524763
    nsecs:  51344000
  frame_id: /map
pose: 
  position: 
    x: -0.837228775024
    y: 15.7974185944
    z: 0.406150579453
  orientation: 
    x: -0.0378641504736
    y: 0.102167202728
    z: 0.109278542501
    w: 0.988021441541
---
header: 
  seq: 4643
  stamp: 
    secs: 1503524763
    nsecs: 156166000
  frame_id: /map
pose: 
  position: 
    x: -0.836638212204
    y: 15.8063707352
    z: 0.414148807526
  orientation: 
    x: -0.0377154251
    y: 0.102500068604
    z: 0.109233094888
    w: 0.987997678958
---
header: 
  seq: 4644
  stamp: 
    secs: 1503524763
    nsecs: 261067000
  frame_id: /map
pose: 
  position: 
    x: -0.830353140831
    y: 15.8040266037
    z: 0.406861782074
  orientation: 
    x: -0.0379808729333
    y: 0.102354556492
    z: 0.108943674818
    w: 0.988034550901
---
header: 
  seq: 4645
  stamp: 
    secs: 1503524763
    nsecs: 365871000
  frame_id: /map
pose: 
  position: 
    x: -0.83352458477
    y: 15.8102941513
    z: 0.418102025986
  orientation: 
    x: -0.0370792702237
    y: 0.102284417137
    z: 0.10898838912
    w: 0.988071129407
---
header: 
  seq: 4646
  stamp: 
    secs: 1503524763
    nsecs: 470705000
  frame_id: /map
pose: 
  position: 
    x: -0.836800336838
    y: 15.8020200729
    z: 0.405947089195
  orientation: 
    x: -0.0380314086356
    y: 0.102259851359
    z: 0.109125342271
    w: 0.98802236535
---
header: 
  seq: 4647
  stamp: 
    secs: 1503524763
    nsecs: 575533000
  frame_id: /map
pose: 
  position: 
    x: -0.828944206238
    y: 15.8001852036
    z: 0.403411626816
  orientation: 
    x: -0.0380736137724
    y: 0.101687048451
    z: 0.109822306963
    w: 0.988002634108
---
header: 
  seq: 4648
  stamp: 
    secs: 1503524763
    nsecs: 680387000
  frame_id: /map
pose: 
  position: 
    x: -0.840608119965
    y: 15.8122463226
    z: 0.409183144569
  orientation: 
    x: -0.0377298697263
    y: 0.1025528627
    z: 0.108515746656
    w: 0.988070695856
---
header: 
  seq: 4649
  stamp: 
    secs: 1503524763
    nsecs: 785287000
  frame_id: /map
pose: 
  position: 
    x: -0.820424318314
    y: 15.8059396744
    z: 0.399044036865
  orientation: 
    x: -0.0378805902445
    y: 0.101580257215
    z: 0.109951395767
    w: 0.988006681554
---
header: 
  seq: 4650
  stamp: 
    secs: 1503524763
    nsecs: 890058000
  frame_id: /map
pose: 
  position: 
    x: -0.827816724777
    y: 15.8069658279
    z: 0.408180475235
  orientation: 
    x: -0.0380177231727
    y: 0.101945668513
    z: 0.10837071813
    w: 0.988138411787
---
header: 
  seq: 4651
  stamp: 
    secs: 1503524763
    nsecs: 994886000
  frame_id: /map
pose: 
  position: 
    x: -0.821897268295
    y: 15.7933006287
    z: 0.409846901894
  orientation: 
    x: -0.0380650008584
    y: 0.101879145959
    z: 0.110015596715
    w: 0.987961671224
---
header: 
  seq: 4652
  stamp: 
    secs: 1503524764
    nsecs:  99740000
  frame_id: /map
pose: 
  position: 
    x: -0.808213472366
    y: 15.8041286469
    z: 0.411105871201
  orientation: 
    x: -0.0377157133767
    y: 0.101633382212
    z: 0.108922700082
    w: 0.988121463177
---
header: 
  seq: 4653
  stamp: 
    secs: 1503524764
    nsecs: 204570000
  frame_id: /map
pose: 
  position: 
    x: -0.793899893761
    y: 15.8182134628
    z: 0.41045987606
  orientation: 
    x: -0.0379278966207
    y: 0.101424044063
    z: 0.109336653578
    w: 0.988089132684
---
header: 
  seq: 4654
  stamp: 
    secs: 1503524764
    nsecs: 309436000
  frame_id: /map
pose: 
  position: 
    x: -0.800296664238
    y: 15.8041696548
    z: 0.407783985138
  orientation: 
    x: -0.0382887165329
    y: 0.101542525479
    z: 0.109104751031
    w: 0.988088681753
---
header: 
  seq: 4655
  stamp: 
    secs: 1503524764
    nsecs: 414282000
  frame_id: /map
pose: 
  position: 
    x: -0.772003889084
    y: 15.8119678497
    z: 0.417386174202
  orientation: 
    x: -0.0377296548073
    y: 0.102049577671
    z: 0.108815454114
    w: 0.988089851072
---
header: 
  seq: 4656
  stamp: 
    secs: 1503524764
    nsecs: 519094000
  frame_id: /map
pose: 
  position: 
    x: -0.745269179344
    y: 15.8233480453
    z: 0.39253115654
  orientation: 
    x: -0.0386078714968
    y: 0.101144895417
    z: 0.108598194973
    w: 0.988172846438
---
header: 
  seq: 4657
  stamp: 
    secs: 1503524764
    nsecs: 623945000
  frame_id: /map
pose: 
  position: 
    x: -0.721808671951
    y: 15.8364219666
    z: 0.420944809914
  orientation: 
    x: -0.03771969178
    y: 0.101542131078
    z: 0.108593754971
    w: 0.988166897265
---
header: 
  seq: 4658
  stamp: 
    secs: 1503524764
    nsecs: 728778000
  frame_id: /map
pose: 
  position: 
    x: -0.686390995979
    y: 15.8321475983
    z: 0.397789955139
  orientation: 
    x: -0.0386029431302
    y: 0.100878858274
    z: 0.10832124335
    w: 0.988230629445
---
header: 
  seq: 4659
  stamp: 
    secs: 1503524764
    nsecs: 833679000
  frame_id: /map
pose: 
  position: 
    x: -0.66029548645
    y: 15.828625679
    z: 0.417718529701
  orientation: 
    x: -0.0378430925282
    y: 0.101432212735
    z: 0.108996336659
    w: 0.98812914397
---
header: 
  seq: 4660
  stamp: 
    secs: 1503524764
    nsecs: 938500000
  frame_id: /map
pose: 
  position: 
    x: -0.638828277588
    y: 15.8530712128
    z: 0.412206053734
  orientation: 
    x: -0.037807100971
    y: 0.101272504483
    z: 0.108683347611
    w: 0.988181376522
---
header: 
  seq: 4661
  stamp: 
    secs: 1503524765
    nsecs:  43317000
  frame_id: /map
pose: 
  position: 
    x: -0.590141057968
    y: 15.8556432724
    z: 0.407405257225
  orientation: 
    x: -0.0381503128214
    y: 0.100874385705
    z: 0.108337385386
    w: 0.98824689368
---
header: 
  seq: 4662
  stamp: 
    secs: 1503524765
    nsecs: 148166000
  frame_id: /map
pose: 
  position: 
    x: -0.561350107193
    y: 15.8685455322
    z: 0.434311151505
  orientation: 
    x: -0.0372879570114
    y: 0.10134290068
    z: 0.108557117143
    w: 0.988207760069
---
header: 
  seq: 4663
  stamp: 
    secs: 1503524765
    nsecs: 253030000
  frame_id: /map
pose: 
  position: 
    x: -0.524003267288
    y: 15.8876438141
    z: 0.421866059303
  orientation: 
    x: -0.0375327883768
    y: 0.101337587356
    z: 0.108028831893
    w: 0.988256927456
---
header: 
  seq: 4664
  stamp: 
    secs: 1503524765
    nsecs: 357978000
  frame_id: /map
pose: 
  position: 
    x: -0.476135611534
    y: 15.8929767609
    z: 0.417828202248
  orientation: 
    x: -0.0379138174009
    y: 0.100825339081
    z: 0.108272623987
    w: 0.988268097403
---
header: 
  seq: 4665
  stamp: 
    secs: 1503524765
    nsecs: 462664000
  frame_id: /map
pose: 
  position: 
    x: -0.41308426857
    y: 15.8883943558
    z: 0.429552197456
  orientation: 
    x: -0.0376131498357
    y: 0.101165925394
    z: 0.107863626957
    w: 0.988289504385
---
header: 
  seq: 4666
  stamp: 
    secs: 1503524765
    nsecs: 567561000
  frame_id: /map
pose: 
  position: 
    x: -0.354277133942
    y: 15.9214754105
    z: 0.423156023026
  orientation: 
    x: -0.037141445185
    y: 0.100485736446
    z: 0.107906563889
    w: 0.988372047
---
header: 
  seq: 4667
  stamp: 
    secs: 1503524765
    nsecs: 672424000
  frame_id: /map
pose: 
  position: 
    x: -0.295441508293
    y: 15.9233369827
    z: 0.433183789253
  orientation: 
    x: -0.0370864105278
    y: 0.100965833946
    z: 0.107893353688
    w: 0.988326627568
---
header: 
  seq: 4668
  stamp: 
    secs: 1503524765
    nsecs: 777220000
  frame_id: /map
pose: 
  position: 
    x: -0.230036735535
    y: 15.9573736191
    z: 0.44109082222
  orientation: 
    x: -0.0368028534487
    y: 0.100981623881
    z: 0.107902284383
    w: 0.988334638997
---
header: 
  seq: 4669
  stamp: 
    secs: 1503524765
    nsecs: 882056000
  frame_id: /map
pose: 
  position: 
    x: -0.144114136696
    y: 15.9666795731
    z: 0.433925509453
  orientation: 
    x: -0.0367189536633
    y: 0.100969841112
    z: 0.108133914814
    w: 0.988313647632
---
header: 
  seq: 4670
  stamp: 
    secs: 1503524765
    nsecs: 986934000
  frame_id: /map
pose: 
  position: 
    x: -0.075389623642
    y: 15.9933423996
    z: 0.439316153526
  orientation: 
    x: -0.0363681122925
    y: 0.101289118394
    z: 0.107268815382
    w: 0.988388221373
---
header: 
  seq: 4671
  stamp: 
    secs: 1503524766
    nsecs:  91741000
  frame_id: /map
pose: 
  position: 
    x: 0.00759315490723
    y: 15.9957199097
    z: 0.443206310272
  orientation: 
    x: -0.035976557919
    y: 0.100806191377
    z: 0.108225418151
    w: 0.988347640219
---
header: 
  seq: 4672
  stamp: 
    secs: 1503524766
    nsecs: 196627000
  frame_id: /map
pose: 
  position: 
    x: 0.0836279392242
    y: 16.0350990295
    z: 0.461567282677
  orientation: 
    x: -0.0353538223582
    y: 0.101508375071
    z: 0.107582133427
    w: 0.98836847461
---
header: 
  seq: 4673
  stamp: 
    secs: 1503524766
    nsecs: 301423000
  frame_id: /map
pose: 
  position: 
    x: 0.193082094193
    y: 16.0559768677
    z: 0.467128753662
  orientation: 
    x: -0.0356512257548
    y: 0.101479740281
    z: 0.107801681257
    w: 0.988336809966
---
header: 
  seq: 4674
  stamp: 
    secs: 1503524766
    nsecs: 406265000
  frame_id: /map
pose: 
  position: 
    x: 0.280189752579
    y: 16.0935821533
    z: 0.476534843445
  orientation: 
    x: -0.035112417256
    y: 0.101390479649
    z: 0.108019673211
    w: 0.988341458703
---
header: 
  seq: 4675
  stamp: 
    secs: 1503524766
    nsecs: 511152000
  frame_id: /map
pose: 
  position: 
    x: 0.38348031044
    y: 16.1254081726
    z: 0.48314344883
  orientation: 
    x: -0.0350184307545
    y: 0.101161910986
    z: 0.10751858049
    w: 0.98842285087
---
header: 
  seq: 4676
  stamp: 
    secs: 1503524766
    nsecs: 615959000
  frame_id: /map
pose: 
  position: 
    x: 0.505916118622
    y: 16.1430339813
    z: 0.495957732201
  orientation: 
    x: -0.0348885604848
    y: 0.101332639893
    z: 0.107976385131
    w: 0.988360048107
---
header: 
  seq: 4677
  stamp: 
    secs: 1503524766
    nsecs: 720787000
  frame_id: /map
pose: 
  position: 
    x: 0.642048835754
    y: 16.1742839813
    z: 0.474552035332
  orientation: 
    x: -0.0355280610784
    y: 0.100619751335
    z: 0.106720050847
    w: 0.98854653571
---
header: 
  seq: 4678
  stamp: 
    secs: 1503524766
    nsecs: 825652000
  frame_id: /map
pose: 
  position: 
    x: 0.739509105682
    y: 16.212179184
    z: 0.493070006371
  orientation: 
    x: -0.0348673910949
    y: 0.100523411376
    z: 0.107053508556
    w: 0.988543805357
---
header: 
  seq: 4679
  stamp: 
    secs: 1503524766
    nsecs: 930470000
  frame_id: /map
pose: 
  position: 
    x: 0.856471776962
    y: 16.2334938049
    z: 0.492239236832
  orientation: 
    x: -0.0350289593887
    y: 0.100262230574
    z: 0.106669733944
    w: 0.988606102037
---
header: 
  seq: 4680
  stamp: 
    secs: 1503524767
    nsecs:  35336000
  frame_id: /map
pose: 
  position: 
    x: 0.993761301041
    y: 16.2568378448
    z: 0.505490541458
  orientation: 
    x: -0.0352042026506
    y: 0.100379209488
    z: 0.106700027218
    w: 0.988584737192
---
header: 
  seq: 4681
  stamp: 
    secs: 1503524767
    nsecs: 140165000
  frame_id: /map
pose: 
  position: 
    x: 1.12928056717
    y: 16.2935657501
    z: 0.515297532082
  orientation: 
    x: -0.0343545291511
    y: 0.100573865591
    z: 0.106449279729
    w: 0.988621876519
---
header: 
  seq: 4682
  stamp: 
    secs: 1503524767
    nsecs: 245151000
  frame_id: /map
pose: 
  position: 
    x: 1.27545833588
    y: 16.3282203674
    z: 0.534286260605
  orientation: 
    x: -0.0341453839223
    y: 0.0997822272175
    z: 0.107786763682
    w: 0.988564420492
---
header: 
  seq: 4683
  stamp: 
    secs: 1503524767
    nsecs: 349852000
  frame_id: /map
pose: 
  position: 
    x: 1.43597888947
    y: 16.3745632172
    z: 0.54431283474
  orientation: 
    x: -0.034790975379
    y: 0.100312403068
    z: 0.105911302469
    w: 0.988690955674
---
header: 
  seq: 4684
  stamp: 
    secs: 1503524767
    nsecs: 454719000
  frame_id: /map
pose: 
  position: 
    x: 1.61647343636
    y: 16.390871048
    z: 0.550674915314
  orientation: 
    x: -0.035886731096
    y: 0.100541286084
    z: 0.105922627094
    w: 0.988627325838
---
header: 
  seq: 4685
  stamp: 
    secs: 1503524767
    nsecs: 559498000
  frame_id: /map
pose: 
  position: 
    x: 1.79454636574
    y: 16.4521331787
    z: 0.555252313614
  orientation: 
    x: -0.0365409684348
    y: 0.100672472221
    z: 0.104855921838
    w: 0.988703720342
---
header: 
  seq: 4686
  stamp: 
    secs: 1503524767
    nsecs: 664380000
  frame_id: /map
pose: 
  position: 
    x: 1.96829676628
    y: 16.4853858948
    z: 0.570147871971
  orientation: 
    x: -0.0364719859443
    y: 0.100726203664
    z: 0.104514424534
    w: 0.988736952481
---
header: 
  seq: 4687
  stamp: 
    secs: 1503524767
    nsecs: 769197000
  frame_id: /map
pose: 
  position: 
    x: 2.1129155159
    y: 16.536699295
    z: 0.572824001312
  orientation: 
    x: -0.0366474205348
    y: 0.0999110262734
    z: 0.104069819781
    w: 0.988860063916
---
header: 
  seq: 4688
  stamp: 
    secs: 1503524767
    nsecs: 874058000
  frame_id: /map
pose: 
  position: 
    x: 2.2861366272
    y: 16.5799102783
    z: 0.590347647667
  orientation: 
    x: -0.0353013847996
    y: 0.100405108812
    z: 0.1039424503
    w: 0.98887238478
---
header: 
  seq: 4689
  stamp: 
    secs: 1503524767
    nsecs: 978884000
  frame_id: /map
pose: 
  position: 
    x: 2.44540262222
    y: 16.6112289429
    z: 0.606361269951
  orientation: 
    x: -0.0350738712055
    y: 0.100628311242
    z: 0.104137412297
    w: 0.988837279786
---
header: 
  seq: 4690
  stamp: 
    secs: 1503524768
    nsecs:  83719000
  frame_id: /map
pose: 
  position: 
    x: 2.59644961357
    y: 16.6561889648
    z: 0.623267292976
  orientation: 
    x: -0.0350690852245
    y: 0.101188592604
    z: 0.101849078222
    w: 0.989018601065
---
header: 
  seq: 4691
  stamp: 
    secs: 1503524768
    nsecs: 188550000
  frame_id: /map
pose: 
  position: 
    x: 2.75614452362
    y: 16.6800823212
    z: 0.634655356407
  orientation: 
    x: -0.0350729600996
    y: 0.100871815868
    z: 0.10373684133
    w: 0.988854606089
---
header: 
  seq: 4692
  stamp: 
    secs: 1503524768
    nsecs: 293466000
  frame_id: /map
pose: 
  position: 
    x: 2.94294786453
    y: 16.7295703888
    z: 0.637578487396
  orientation: 
    x: -0.0356581370266
    y: 0.100186534487
    z: 0.103202021227
    w: 0.988959300672
---
header: 
  seq: 4693
  stamp: 
    secs: 1503524768
    nsecs: 398236000
  frame_id: /map
pose: 
  position: 
    x: 3.14636802673
    y: 16.7655658722
    z: 0.665162205696
  orientation: 
    x: -0.0358244725226
    y: 0.100432672249
    z: 0.102759461734
    w: 0.988974407423
---
header: 
  seq: 4694
  stamp: 
    secs: 1503524768
    nsecs: 503126000
  frame_id: /map
pose: 
  position: 
    x: 3.31408834457
    y: 16.8133525848
    z: 0.670826077461
  orientation: 
    x: -0.0365146449181
    y: 0.100937940965
    z: 0.102788559696
    w: 0.988894698528
---
header: 
  seq: 4695
  stamp: 
    secs: 1503524768
    nsecs: 607998000
  frame_id: /map
pose: 
  position: 
    x: 3.5172932148
    y: 16.8813095093
    z: 0.682154655457
  orientation: 
    x: -0.0357017129719
    y: 0.100409064857
    z: 0.101960403225
    w: 0.98906394311
---
header: 
  seq: 4696
  stamp: 
    secs: 1503524768
    nsecs: 712773000
  frame_id: /map
pose: 
  position: 
    x: 3.6999797821
    y: 16.9149589539
    z: 0.713569998741
  orientation: 
    x: -0.0347049265215
    y: 0.10110973196
    z: 0.101263561316
    w: 0.989099631649
---
header: 
  seq: 4697
  stamp: 
    secs: 1503524768
    nsecs: 817600000
  frame_id: /map
pose: 
  position: 
    x: 3.91051745415
    y: 16.9622383118
    z: 0.719606518745
  orientation: 
    x: -0.0354822504909
    y: 0.10136316144
    z: 0.100351553701
    w: 0.989139062555
---
header: 
  seq: 4698
  stamp: 
    secs: 1503524768
    nsecs: 922439000
  frame_id: /map
pose: 
  position: 
    x: 4.09149599075
    y: 16.9983787537
    z: 0.726535320282
  orientation: 
    x: -0.0360060375698
    y: 0.10164197487
    z: 0.0997281360829
    w: 0.989154574916
---
header: 
  seq: 4699
  stamp: 
    secs: 1503524769
    nsecs:  27294000
  frame_id: /map
pose: 
  position: 
    x: 4.22757482529
    y: 17.0338630676
    z: 0.73103249073
  orientation: 
    x: -0.0362605133581
    y: 0.101115057708
    z: 0.0986174538661
    w: 0.989310627694
---
header: 
  seq: 4700
  stamp: 
    secs: 1503524769
    nsecs: 132130000
  frame_id: /map
pose: 
  position: 
    x: 4.41223812103
    y: 17.0783557892
    z: 0.748160004616
  orientation: 
    x: -0.0361109148977
    y: 0.10084095286
    z: 0.097718964106
    w: 0.989433225693
---
header: 
  seq: 4701
  stamp: 
    secs: 1503524769
    nsecs: 236988000
  frame_id: /map
pose: 
  position: 
    x: 4.5741481781
    y: 17.1032524109
    z: 0.749366641045
  orientation: 
    x: -0.0368254228262
    y: 0.100566137275
    z: 0.097279134744
    w: 0.989478200978
---
header: 
  seq: 4702
  stamp: 
    secs: 1503524769
    nsecs: 341840000
  frame_id: /map
pose: 
  position: 
    x: 4.74879407883
    y: 17.1448535919
    z: 0.749436855316
  orientation: 
    x: -0.0370666827633
    y: 0.100664204401
    z: 0.0969014047579
    w: 0.989496284347
---
header: 
  seq: 4703
  stamp: 
    secs: 1503524769
    nsecs: 446728000
  frame_id: /map
pose: 
  position: 
    x: 4.90739345551
    y: 17.1989917755
    z: 0.775799036026
  orientation: 
    x: -0.0369557072272
    y: 0.100724339416
    z: 0.0965011635438
    w: 0.989533429747
---
header: 
  seq: 4704
  stamp: 
    secs: 1503524769
    nsecs: 551511000
  frame_id: /map
pose: 
  position: 
    x: 5.08491706848
    y: 17.2412872314
    z: 0.785156011581
  orientation: 
    x: -0.037550061362
    y: 0.101428049281
    z: 0.0956870458123
    w: 0.989518232765
---
header: 
  seq: 4705
  stamp: 
    secs: 1503524769
    nsecs: 656397000
  frame_id: /map
pose: 
  position: 
    x: 5.27487945557
    y: 17.2674560547
    z: 0.802625656128
  orientation: 
    x: -0.0380696437093
    y: 0.102010263979
    z: 0.0947121619167
    w: 0.989532321178
---
header: 
  seq: 4706
  stamp: 
    secs: 1503524769
    nsecs: 761185000
  frame_id: /map
pose: 
  position: 
    x: 5.51128387451
    y: 17.3043441772
    z: 0.817748904228
  orientation: 
    x: -0.0373581919366
    y: 0.101665149942
    z: 0.0933073397009
    w: 0.989728398673
---
header: 
  seq: 4707
  stamp: 
    secs: 1503524769
    nsecs: 866060000
  frame_id: /map
pose: 
  position: 
    x: 5.70184707642
    y: 17.3475074768
    z: 0.815958142281
  orientation: 
    x: -0.0383965411668
    y: 0.101439264513
    z: 0.092451819052
    w: 0.989792120799
---
header: 
  seq: 4708
  stamp: 
    secs: 1503524769
    nsecs: 970886000
  frame_id: /map
pose: 
  position: 
    x: 5.86190700531
    y: 17.4078521729
    z: 0.836249709129
  orientation: 
    x: -0.0384423606677
    y: 0.101858489246
    z: 0.0924104424665
    w: 0.989751152158
---
header: 
  seq: 4709
  stamp: 
    secs: 1503524770
    nsecs:  75837000
  frame_id: /map
pose: 
  position: 
    x: 6.07970619202
    y: 17.4439678192
    z: 0.838373064995
  orientation: 
    x: -0.0404021997852
    y: 0.100661310272
    z: 0.0911762312466
    w: 0.989910025064
---
header: 
  seq: 4710
  stamp: 
    secs: 1503524770
    nsecs: 180585000
  frame_id: /map
pose: 
  position: 
    x: 6.26661634445
    y: 17.4710769653
    z: 0.843783378601
  orientation: 
    x: -0.0397042778171
    y: 0.100331408059
    z: 0.0901628567834
    w: 0.99006456261
---
header: 
  seq: 4711
  stamp: 
    secs: 1503524770
    nsecs: 285408000
  frame_id: /map
pose: 
  position: 
    x: 6.43426513672
    y: 17.507062912
    z: 0.858243227005
  orientation: 
    x: -0.0391197332552
    y: 0.100876907382
    z: 0.0899165494049
    w: 0.990054801599
---
header: 
  seq: 4712
  stamp: 
    secs: 1503524770
    nsecs: 390222000
  frame_id: /map
pose: 
  position: 
    x: 6.59924602509
    y: 17.5399494171
    z: 0.87254011631
  orientation: 
    x: -0.0391439768009
    y: 0.100951305978
    z: 0.0893344792923
    w: 0.990098951475
---
header: 
  seq: 4713
  stamp: 
    secs: 1503524770
    nsecs: 495094000
  frame_id: /map
pose: 
  position: 
    x: 6.76160049438
    y: 17.5882148743
    z: 0.902373790741
  orientation: 
    x: -0.0385333935903
    y: 0.101361072922
    z: 0.088921101812
    w: 0.990118249568
---
header: 
  seq: 4714
  stamp: 
    secs: 1503524770
    nsecs: 599923000
  frame_id: /map
pose: 
  position: 
    x: 6.94773197174
    y: 17.6375694275
    z: 0.910045027733
  orientation: 
    x: -0.0384316208467
    y: 0.101493466165
    z: 0.0886849938539
    w: 0.99012981912
---
header: 
  seq: 4715
  stamp: 
    secs: 1503524770
    nsecs: 704761000
  frame_id: /map
pose: 
  position: 
    x: 7.13434696198
    y: 17.6821956635
    z: 0.950776576996
  orientation: 
    x: -0.0363465109204
    y: 0.102595724829
    z: 0.0881436851509
    w: 0.990143292235
---
header: 
  seq: 4716
  stamp: 
    secs: 1503524770
    nsecs: 809653000
  frame_id: /map
pose: 
  position: 
    x: 7.32830762863
    y: 17.7113265991
    z: 0.959848642349
  orientation: 
    x: -0.0353910692456
    y: 0.10267239442
    z: 0.0871703363715
    w: 0.990256120455
---
header: 
  seq: 4717
  stamp: 
    secs: 1503524770
    nsecs: 914465000
  frame_id: /map
pose: 
  position: 
    x: 7.47478103638
    y: 17.7386932373
    z: 0.976927042007
  orientation: 
    x: -0.0362474119565
    y: 0.103720192237
    z: 0.0861643608542
    w: 0.990203994017
---
header: 
  seq: 4718
  stamp: 
    secs: 1503524771
    nsecs:  19274000
  frame_id: /map
pose: 
  position: 
    x: 7.64993095398
    y: 17.7759742737
    z: 0.965084910393
  orientation: 
    x: -0.0381399004756
    y: 0.103170371581
    z: 0.0851826004245
    w: 0.990275288495
---
header: 
  seq: 4719
  stamp: 
    secs: 1503524771
    nsecs: 124158000
  frame_id: /map
pose: 
  position: 
    x: 7.84581279755
    y: 17.8028850555
    z: 0.962879180908
  orientation: 
    x: -0.0391375600816
    y: 0.102797963185
    z: 0.0835109374387
    w: 0.990417464246
---
header: 
  seq: 4720
  stamp: 
    secs: 1503524771
    nsecs: 228972000
  frame_id: /map
pose: 
  position: 
    x: 8.04290390015
    y: 17.8435058594
    z: 0.983471632004
  orientation: 
    x: -0.0384680986476
    y: 0.103006405806
    z: 0.0824958180816
    w: 0.99050710535
---
header: 
  seq: 4721
  stamp: 
    secs: 1503524771
    nsecs: 333832000
  frame_id: /map
pose: 
  position: 
    x: 8.19257164001
    y: 17.8822593689
    z: 1.00047302246
  orientation: 
    x: -0.038325178155
    y: 0.103215586575
    z: 0.0814554342779
    w: 0.99057697108
---
header: 
  seq: 4722
  stamp: 
    secs: 1503524771
    nsecs: 438677000
  frame_id: /map
pose: 
  position: 
    x: 8.4054851532
    y: 17.9326648712
    z: 1.02711391449
  orientation: 
    x: -0.038312639113
    y: 0.103258584125
    z: 0.0795860012451
    w: 0.990724923929
---
header: 
  seq: 4723
  stamp: 
    secs: 1503524771
    nsecs: 543532000
  frame_id: /map
pose: 
  position: 
    x: 8.57112884521
    y: 17.9480190277
    z: 1.01717340946
  orientation: 
    x: -0.039963275162
    y: 0.102781939325
    z: 0.0774555227695
    w: 0.990878121456
---
header: 
  seq: 4724
  stamp: 
    secs: 1503524771
    nsecs: 648322000
  frame_id: /map
pose: 
  position: 
    x: 8.75184059143
    y: 17.9947757721
    z: 1.03227555752
  orientation: 
    x: -0.0400780146659
    y: 0.103200195411
    z: 0.0751980642072
    w: 0.991003896837
---
header: 
  seq: 4725
  stamp: 
    secs: 1503524771
    nsecs: 753163000
  frame_id: /map
pose: 
  position: 
    x: 8.95341300964
    y: 18.0365619659
    z: 1.03696429729
  orientation: 
    x: -0.0406277405002
    y: 0.103636951257
    z: 0.0741480832236
    w: 0.991015050738
---
header: 
  seq: 4726
  stamp: 
    secs: 1503524771
    nsecs: 858010000
  frame_id: /map
pose: 
  position: 
    x: 9.12185096741
    y: 18.0403709412
    z: 1.04130625725
  orientation: 
    x: -0.0413004431967
    y: 0.103861254154
    z: 0.072609057809
    w: 0.99107771542
---
header: 
  seq: 4727
  stamp: 
    secs: 1503524771
    nsecs: 962860000
  frame_id: /map
pose: 
  position: 
    x: 9.3104724884
    y: 18.088312149
    z: 1.06248641014
  orientation: 
    x: -0.0395350701552
    y: 0.104090757471
    z: 0.0713783339354
    w: 0.991215025048
---
header: 
  seq: 4728
  stamp: 
    secs: 1503524772
    nsecs:  67699000
  frame_id: /map
pose: 
  position: 
    x: 9.47205352783
    y: 18.1164302826
    z: 1.07088732719
  orientation: 
    x: -0.0372220524696
    y: 0.103035751919
    z: 0.0709482189272
    w: 0.991445663094
---
header: 
  seq: 4729
  stamp: 
    secs: 1503524772
    nsecs: 172604000
  frame_id: /map
pose: 
  position: 
    x: 9.67001056671
    y: 18.1473960876
    z: 1.1156206131
  orientation: 
    x: -0.0347074328871
    y: 0.103278400893
    z: 0.0692160109078
    w: 0.99163406045
---
header: 
  seq: 4730
  stamp: 
    secs: 1503524772
    nsecs: 277397000
  frame_id: /map
pose: 
  position: 
    x: 9.84345531464
    y: 18.1820240021
    z: 1.13848304749
  orientation: 
    x: -0.0323336801797
    y: 0.103020937098
    z: 0.0679913378538
    w: 0.991825789956
---
header: 
  seq: 4731
  stamp: 
    secs: 1503524772
    nsecs: 382261000
  frame_id: /map
pose: 
  position: 
    x: 10.0128030777
    y: 18.1975364685
    z: 1.13576364517
  orientation: 
    x: -0.0318793553987
    y: 0.102063483094
    z: 0.0671670930295
    w: 0.991995631912
---
header: 
  seq: 4732
  stamp: 
    secs: 1503524772
    nsecs: 487092000
  frame_id: /map
pose: 
  position: 
    x: 10.1902236938
    y: 18.2098693848
    z: 1.15046072006
  orientation: 
    x: -0.0314306447561
    y: 0.10239090753
    z: 0.0653105521319
    w: 0.99210017055
---
header: 
  seq: 4733
  stamp: 
    secs: 1503524772
    nsecs: 591923000
  frame_id: /map
pose: 
  position: 
    x: 10.3764591217
    y: 18.2486820221
    z: 1.13727605343
  orientation: 
    x: -0.032326439716
    y: 0.101324516911
    z: 0.0637043057345
    w: 0.992285294156
---
header: 
  seq: 4734
  stamp: 
    secs: 1503524772
    nsecs: 696800000
  frame_id: /map
pose: 
  position: 
    x: 10.5570392609
    y: 18.2954845428
    z: 1.14307963848
  orientation: 
    x: -0.0341692168478
    y: 0.100443549492
    z: 0.0616687009247
    w: 0.992441700712
---
header: 
  seq: 4735
  stamp: 
    secs: 1503524772
    nsecs: 801581000
  frame_id: /map
pose: 
  position: 
    x: 10.745388031
    y: 18.3156929016
    z: 1.15288627148
  orientation: 
    x: -0.0350676142668
    y: 0.101105123076
    z: 0.0606249477621
    w: 0.992407493032
---
header: 
  seq: 4736
  stamp: 
    secs: 1503524772
    nsecs: 906451000
  frame_id: /map
pose: 
  position: 
    x: 10.9371385574
    y: 18.3536872864
    z: 1.18097245693
  orientation: 
    x: -0.0343408391001
    y: 0.101816888556
    z: 0.0572451286068
    w: 0.99256084107
---
header: 
  seq: 4737
  stamp: 
    secs: 1503524773
    nsecs:  11268000
  frame_id: /map
pose: 
  position: 
    x: 11.1183662415
    y: 18.4031581879
    z: 1.18431544304
  orientation: 
    x: -0.0354693801958
    y: 0.101199008649
    z: 0.056019827833
    w: 0.992654251291
---
header: 
  seq: 4738
  stamp: 
    secs: 1503524773
    nsecs: 116120000
  frame_id: /map
pose: 
  position: 
    x: 11.2930784225
    y: 18.4293785095
    z: 1.20441508293
  orientation: 
    x: -0.0352902120014
    y: 0.100746893925
    z: 0.0530372645676
    w: 0.992870441129
---
header: 
  seq: 4739
  stamp: 
    secs: 1503524773
    nsecs: 220992000
  frame_id: /map
pose: 
  position: 
    x: 11.4786176682
    y: 18.4689083099
    z: 1.20069098473
  orientation: 
    x: -0.0361047629893
    y: 0.0998011646006
    z: 0.0502920463297
    w: 0.993079495161
---
header: 
  seq: 4740
  stamp: 
    secs: 1503524773
    nsecs: 325853000
  frame_id: /map
pose: 
  position: 
    x: 11.6832637787
    y: 18.4965248108
    z: 1.21189916134
  orientation: 
    x: -0.0349497337344
    y: 0.0996228811296
    z: 0.0466181849733
    w: 0.993317946328
---
header: 
  seq: 4741
  stamp: 
    secs: 1503524773
    nsecs: 430635000
  frame_id: /map
pose: 
  position: 
    x: 11.8662815094
    y: 18.5055503845
    z: 1.21700835228
  orientation: 
    x: -0.0347205741221
    y: 0.0995015877429
    z: 0.0430131630889
    w: 0.993500771802
---
header: 
  seq: 4742
  stamp: 
    secs: 1503524773
    nsecs: 535475000
  frame_id: /map
pose: 
  position: 
    x: 12.0550174713
    y: 18.5412158966
    z: 1.24521517754
  orientation: 
    x: -0.0332770018248
    y: 0.0996922707573
    z: 0.0407986682704
    w: 0.993624456708
---
header: 
  seq: 4743
  stamp: 
    secs: 1503524773
    nsecs: 640312000
  frame_id: /map
pose: 
  position: 
    x: 12.2062902451
    y: 18.5490550995
    z: 1.27071607113
  orientation: 
    x: -0.0316078577429
    y: 0.101445733492
    z: 0.0379857797921
    w: 0.993612996603
---
header: 
  seq: 4744
  stamp: 
    secs: 1503524773
    nsecs: 745221000
  frame_id: /map
pose: 
  position: 
    x: 12.3949794769
    y: 18.5684528351
    z: 1.29888606071
  orientation: 
    x: -0.0293612290149
    y: 0.102034059776
    z: 0.0346504850324
    w: 0.993743585017
---
header: 
  seq: 4745
  stamp: 
    secs: 1503524773
    nsecs: 850009000
  frame_id: /map
pose: 
  position: 
    x: 12.5414190292
    y: 18.5727767944
    z: 1.3147687912
  orientation: 
    x: -0.0271873262607
    y: 0.103367441914
    z: 0.0317954106459
    w: 0.993763087011
---
header: 
  seq: 4746
  stamp: 
    secs: 1503524773
    nsecs: 954881000
  frame_id: /map
pose: 
  position: 
    x: 12.747171402
    y: 18.5741405487
    z: 1.33077096939
  orientation: 
    x: -0.0254848864919
    y: 0.104116659138
    z: 0.0275232202536
    w: 0.993857491896
---
header: 
  seq: 4747
  stamp: 
    secs: 1503524774
    nsecs:  59682000
  frame_id: /map
pose: 
  position: 
    x: 12.921880722
    y: 18.5985050201
    z: 1.33212161064
  orientation: 
    x: -0.0245547301761
    y: 0.105058910004
    z: 0.0242322002594
    w: 0.993867441425
---
header: 
  seq: 4748
  stamp: 
    secs: 1503524774
    nsecs: 164614000
  frame_id: /map
pose: 
  position: 
    x: 13.0879182816
    y: 18.5893917084
    z: 1.32986545563
  orientation: 
    x: -0.0248976757212
    y: 0.1048153806
    z: 0.0209391880875
    w: 0.993959451957
---
header: 
  seq: 4749
  stamp: 
    secs: 1503524774
    nsecs: 269403000
  frame_id: /map
pose: 
  position: 
    x: 13.2936897278
    y: 18.6223583221
    z: 1.34168052673
  orientation: 
    x: -0.0242909036539
    y: 0.104660491753
    z: 0.0172190477186
    w: 0.994062190138
---
header: 
  seq: 4750
  stamp: 
    secs: 1503524774
    nsecs: 374220000
  frame_id: /map
pose: 
  position: 
    x: 13.4409475327
    y: 18.6388473511
    z: 1.35409998894
  orientation: 
    x: -0.0243421869769
    y: 0.104157439017
    z: 0.0140444942984
    w: 0.994163687735
---
header: 
  seq: 4751
  stamp: 
    secs: 1503524774
    nsecs: 479082000
  frame_id: /map
pose: 
  position: 
    x: 13.6142444611
    y: 18.6548347473
    z: 1.36297035217
  orientation: 
    x: -0.0242722880517
    y: 0.104144168389
    z: 0.0100897144012
    w: 0.994214788608
---
header: 
  seq: 4752
  stamp: 
    secs: 1503524774
    nsecs: 583889000
  frame_id: /map
pose: 
  position: 
    x: 13.780002594
    y: 18.6438007355
    z: 1.37200760841
  orientation: 
    x: -0.0251954081663
    y: 0.103149100444
    z: 0.00722043726067
    w: 0.994320531705
---
header: 
  seq: 4753
  stamp: 
    secs: 1503524774
    nsecs: 688763000
  frame_id: /map
pose: 
  position: 
    x: 13.9385118484
    y: 18.672208786
    z: 1.38259065151
  orientation: 
    x: -0.0253202522981
    y: 0.103314825282
    z: 0.00328491143719
    w: 0.994320944694
---
header: 
  seq: 4754
  stamp: 
    secs: 1503524774
    nsecs: 793591000
  frame_id: /map
pose: 
  position: 
    x: 14.0958194733
    y: 18.6788597107
    z: 1.38998413086
  orientation: 
    x: -0.024122996088
    y: 0.103455711391
    z: 0.000998288693492
    w: 0.994340987921
---
header: 
  seq: 4755
  stamp: 
    secs: 1503524774
    nsecs: 898449000
  frame_id: /map
pose: 
  position: 
    x: 14.2205533981
    y: 18.7104053497
    z: 1.41066718102
  orientation: 
    x: -0.0218885259368
    y: 0.104435047385
    z: -0.00178917665602
    w: 0.994289199457
---
header: 
  seq: 4756
  stamp: 
    secs: 1503524775
    nsecs:   3300000
  frame_id: /map
pose: 
  position: 
    x: 14.346154213
    y: 18.6916103363
    z: 1.3932441473
  orientation: 
    x: -0.0209073878824
    y: 0.104056191757
    z: -0.00416089224732
    w: 0.994342937353
---
header: 
  seq: 4757
  stamp: 
    secs: 1503524775
    nsecs: 108114000
  frame_id: /map
pose: 
  position: 
    x: 14.4475870132
    y: 18.7003421783
    z: 1.41793751717
  orientation: 
    x: -0.0189059039989
    y: 0.104395441434
    z: -0.00594212508758
    w: 0.994338398007
---
header: 
  seq: 4758
  stamp: 
    secs: 1503524775
    nsecs: 212979000
  frame_id: /map
pose: 
  position: 
    x: 14.5215101242
    y: 18.7143154144
    z: 1.41140449047
  orientation: 
    x: -0.0185326337573
    y: 0.103446361977
    z: -0.00744830863442
    w: 0.994434469625
---
header: 
  seq: 4759
  stamp: 
    secs: 1503524775
    nsecs: 317804000
  frame_id: /map
pose: 
  position: 
    x: 14.623087883
    y: 18.7138290405
    z: 1.42659902573
  orientation: 
    x: -0.0181626509557
    y: 0.103153178589
    z: -0.00897047093937
    w: 0.994459184938
---
header: 
  seq: 4760
  stamp: 
    secs: 1503524775
    nsecs: 422679000
  frame_id: /map
pose: 
  position: 
    x: 14.6881027222
    y: 18.7133235931
    z: 1.42730593681
  orientation: 
    x: -0.0184148300791
    y: 0.102631764036
    z: -0.00998944932065
    w: 0.994498781269
---
header: 
  seq: 4761
  stamp: 
    secs: 1503524775
    nsecs: 527487000
  frame_id: /map
pose: 
  position: 
    x: 14.7516727448
    y: 18.7360553741
    z: 1.43148708344
  orientation: 
    x: -0.0179920489542
    y: 0.102781696701
    z: -0.0109639560529
    w: 0.994480769379
---
header: 
  seq: 4762
  stamp: 
    secs: 1503524775
    nsecs: 632317000
  frame_id: /map
pose: 
  position: 
    x: 14.7919368744
    y: 18.7171287537
    z: 1.44221663475
  orientation: 
    x: -0.0178261307034
    y: 0.103116663616
    z: -0.0123577433525
    w: 0.994432737257
---
header: 
  seq: 4763
  stamp: 
    secs: 1503524775
    nsecs: 737168000
  frame_id: /map
pose: 
  position: 
    x: 14.82035923
    y: 18.7196769714
    z: 1.43306291103
  orientation: 
    x: -0.0182821782255
    y: 0.102558623214
    z: -0.0125595675916
    w: 0.994479636808
---
header: 
  seq: 4764
  stamp: 
    secs: 1503524775
    nsecs: 842045000
  frame_id: /map
pose: 
  position: 
    x: 14.8119354248
    y: 18.7169857025
    z: 1.43051981926
  orientation: 
    x: -0.0182502714802
    y: 0.102684548237
    z: -0.0127252391328
    w: 0.994465122281
---
header: 
  seq: 4765
  stamp: 
    secs: 1503524775
    nsecs: 946843000
  frame_id: /map
pose: 
  position: 
    x: 14.8353176117
    y: 18.7090549469
    z: 1.42931127548
  orientation: 
    x: -0.0184428023313
    y: 0.102262510341
    z: -0.0129536443386
    w: 0.994502109158
---
header: 
  seq: 4766
  stamp: 
    secs: 1503524776
    nsecs:  51736000
  frame_id: /map
pose: 
  position: 
    x: 14.8329696655
    y: 18.712852478
    z: 1.44295334816
  orientation: 
    x: -0.0179629768225
    y: 0.102272082772
    z: -0.0130586437614
    w: 0.994508534087
---
header: 
  seq: 4767
  stamp: 
    secs: 1503524776
    nsecs: 156624000
  frame_id: /map
pose: 
  position: 
    x: 14.8385972977
    y: 18.7259941101
    z: 1.4339120388
  orientation: 
    x: -0.0184766824575
    y: 0.100824207925
    z: -0.0130407571591
    w: 0.994647188683
---
header: 
  seq: 4768
  stamp: 
    secs: 1503524776
    nsecs: 261426000
  frame_id: /map
pose: 
  position: 
    x: 14.8385810852
    y: 18.7228279114
    z: 1.44637227058
  orientation: 
    x: -0.0178732542359
    y: 0.101337935381
    z: -0.0129764514806
    w: 0.994606847625
---
header: 
  seq: 4769
  stamp: 
    secs: 1503524776
    nsecs: 366228000
  frame_id: /map
pose: 
  position: 
    x: 14.8356981277
    y: 18.7072563171
    z: 1.43705296516
  orientation: 
    x: -0.0181625486688
    y: 0.100935592735
    z: -0.0131802512177
    w: 0.994639838797
---
header: 
  seq: 4770
  stamp: 
    secs: 1503524776
    nsecs: 471075000
  frame_id: /map
pose: 
  position: 
    x: 14.8322439194
    y: 18.717590332
    z: 1.43986415863
  orientation: 
    x: -0.0184134465787
    y: 0.101316428634
    z: -0.012886556503
    w: 0.994600353376
---
header: 
  seq: 4771
  stamp: 
    secs: 1503524776
    nsecs: 575897000
  frame_id: /map
pose: 
  position: 
    x: 14.8337144852
    y: 18.7191867828
    z: 1.44685125351
  orientation: 
    x: -0.0178506863991
    y: 0.101296927133
    z: -0.0132588620684
    w: 0.994607705643
---
header: 
  seq: 4772
  stamp: 
    secs: 1503524776
    nsecs: 680757000
  frame_id: /map
pose: 
  position: 
    x: 14.8393516541
    y: 18.7066574097
    z: 1.43587315083
  orientation: 
    x: -0.0186774780576
    y: 0.101124214581
    z: -0.0128100442456
    w: 0.994615980067
---
header: 
  seq: 4773
  stamp: 
    secs: 1503524776
    nsecs: 785592000
  frame_id: /map
pose: 
  position: 
    x: 14.8323802948
    y: 18.7165088654
    z: 1.43223690987
  orientation: 
    x: -0.0184769919794
    y: 0.100999973356
    z: -0.0134167397868
    w: 0.994624349814
---
header: 
  seq: 4774
  stamp: 
    secs: 1503524776
    nsecs: 890439000
  frame_id: /map
pose: 
  position: 
    x: 14.8329401016
    y: 18.7014122009
    z: 1.4358215332
  orientation: 
    x: -0.0182801837783
    y: 0.100897881513
    z: -0.0127019297756
    w: 0.994647733304
---
header: 
  seq: 4775
  stamp: 
    secs: 1503524776
    nsecs: 995267000
  frame_id: /map
pose: 
  position: 
    x: 14.8458156586
    y: 18.7103004456
    z: 1.44323027134
  orientation: 
    x: -0.0181191026726
    y: 0.101321107795
    z: -0.0132090339819
    w: 0.994601052008
---
header: 
  seq: 4776
  stamp: 
    secs: 1503524777
    nsecs: 100092000
  frame_id: /map
pose: 
  position: 
    x: 14.8396015167
    y: 18.7111358643
    z: 1.43700587749
  orientation: 
    x: -0.0183859152315
    y: 0.101082685432
    z: -0.0129705600357
    w: 0.994623553612
---
header: 
  seq: 4777
  stamp: 
    secs: 1503524777
    nsecs: 204986000
  frame_id: /map
pose: 
  position: 
    x: 14.8128128052
    y: 18.7101707458
    z: 1.43118786812
  orientation: 
    x: -0.0179681849581
    y: 0.101729659885
    z: -0.0125942234786
    w: 0.994570060963
---
header: 
  seq: 4778
  stamp: 
    secs: 1503524777
    nsecs: 309777000
  frame_id: /map
pose: 
  position: 
    x: 14.8083047867
    y: 18.7096977234
    z: 1.43583667278
  orientation: 
    x: -0.0182311189392
    y: 0.101339612485
    z: -0.0128712292017
    w: 0.994601548713
---
header: 
  seq: 4779
  stamp: 
    secs: 1503524777
    nsecs: 414626000
  frame_id: /map
pose: 
  position: 
    x: 14.8039894104
    y: 18.7212162018
    z: 1.433604002
  orientation: 
    x: -0.0182881439522
    y: 0.100933050102
    z: -0.0123572355256
    w: 0.994648360939
---
header: 
  seq: 4780
  stamp: 
    secs: 1503524777
    nsecs: 519501000
  frame_id: /map
pose: 
  position: 
    x: 14.7777442932
    y: 18.7123680115
    z: 1.43559575081
  orientation: 
    x: -0.0179499440507
    y: 0.101733973446
    z: -0.0120652751015
    w: 0.994576506505
---
header: 
  seq: 4781
  stamp: 
    secs: 1503524777
    nsecs: 624308000
  frame_id: /map
pose: 
  position: 
    x: 14.7447500229
    y: 18.7139434814
    z: 1.42447578907
  orientation: 
    x: -0.0184624050424
    y: 0.101773525053
    z: -0.0109284478119
    w: 0.994576220421
---
header: 
  seq: 4782
  stamp: 
    secs: 1503524777
    nsecs: 729150000
  frame_id: /map
pose: 
  position: 
    x: 14.703540802
    y: 18.7069759369
    z: 1.42311692238
  orientation: 
    x: -0.0183567694895
    y: 0.101887418964
    z: -0.0107649876406
    w: 0.994568297259
---
header: 
  seq: 4783
  stamp: 
    secs: 1503524777
    nsecs: 833993000
  frame_id: /map
pose: 
  position: 
    x: 14.6736059189
    y: 18.7134494781
    z: 1.42645680904
  orientation: 
    x: -0.0184448810219
    y: 0.102041354512
    z: -0.00945434784149
    w: 0.994564207902
---
header: 
  seq: 4784
  stamp: 
    secs: 1503524777
    nsecs: 938843000
  frame_id: /map
pose: 
  position: 
    x: 14.6117639542
    y: 18.702173233
    z: 1.41789841652
  orientation: 
    x: -0.0184764082832
    y: 0.102262544966
    z: -0.00898810189124
    w: 0.994545226854
---
header: 
  seq: 4785
  stamp: 
    secs: 1503524778
    nsecs:  43714000
  frame_id: /map
pose: 
  position: 
    x: 14.5572853088
    y: 18.7179431915
    z: 1.41446304321
  orientation: 
    x: -0.0185367993852
    y: 0.102248482544
    z: -0.00791747344143
    w: 0.994554648323
---
header: 
  seq: 4786
  stamp: 
    secs: 1503524778
    nsecs: 148529000
  frame_id: /map
pose: 
  position: 
    x: 14.5082817078
    y: 18.7060337067
    z: 1.40537917614
  orientation: 
    x: -0.0189894056953
    y: 0.102277037436
    z: -0.00700833350506
    w: 0.994549995398
---
header: 
  seq: 4787
  stamp: 
    secs: 1503524778
    nsecs: 253389000
  frame_id: /map
pose: 
  position: 
    x: 14.4479103088
    y: 18.7136058807
    z: 1.41202068329
  orientation: 
    x: -0.0189122151695
    y: 0.103036097691
    z: -0.00625354939743
    w: 0.994478146472
---
header: 
  seq: 4788
  stamp: 
    secs: 1503524778
    nsecs: 358223000
  frame_id: /map
pose: 
  position: 
    x: 14.3763713837
    y: 18.6949901581
    z: 1.38896942139
  orientation: 
    x: -0.0203329422444
    y: 0.102481151413
    z: -0.0047940001167
    w: 0.994515561782
---
header: 
  seq: 4789
  stamp: 
    secs: 1503524778
    nsecs: 463067000
  frame_id: /map
pose: 
  position: 
    x: 14.2943372726
    y: 18.7006397247
    z: 1.38927292824
  orientation: 
    x: -0.0212035256398
    y: 0.103127359121
    z: -0.00297964476115
    w: 0.994437670253
---
header: 
  seq: 4790
  stamp: 
    secs: 1503524778
    nsecs: 567907000
  frame_id: /map
pose: 
  position: 
    x: 14.2333040237
    y: 18.712562561
    z: 1.38743770123
  orientation: 
    x: -0.0217623967652
    y: 0.10345997155
    z: -0.00210026996375
    w: 0.994393293039
---
header: 
  seq: 4791
  stamp: 
    secs: 1503524778
    nsecs: 672762000
  frame_id: /map
pose: 
  position: 
    x: 14.1469306946
    y: 18.6960811615
    z: 1.39812099934
  orientation: 
    x: -0.0227126470448
    y: 0.103061124273
    z: -0.000347470632836
    w: 0.99441561713
---
header: 
  seq: 4792
  stamp: 
    secs: 1503524778
    nsecs: 777571000
  frame_id: /map
pose: 
  position: 
    x: 14.0591545105
    y: 18.7017784119
    z: 1.39931416512
  orientation: 
    x: -0.0234844227779
    y: 0.103609479102
    z: 0.00117396390308
    w: 0.994340072377
---
header: 
  seq: 4793
  stamp: 
    secs: 1503524778
    nsecs: 882439000
  frame_id: /map
pose: 
  position: 
    x: 13.9563789368
    y: 18.696811676
    z: 1.38451004028
  orientation: 
    x: -0.0241664185266
    y: 0.103744147291
    z: 0.00343475199101
    w: 0.994304449652
---
header: 
  seq: 4794
  stamp: 
    secs: 1503524778
    nsecs: 987286000
  frame_id: /map
pose: 
  position: 
    x: 13.864575386
    y: 18.7002391815
    z: 1.37799525261
  orientation: 
    x: -0.0243086781096
    y: 0.103492546723
    z: 0.00573868267175
    w: 0.994316573563
---
header: 
  seq: 4795
  stamp: 
    secs: 1503524779
    nsecs:  92105000
  frame_id: /map
pose: 
  position: 
    x: 13.7682409286
    y: 18.6809101105
    z: 1.36482870579
  orientation: 
    x: -0.0248363225582
    y: 0.103415296394
    z: 0.00757214462212
    w: 0.994299299094
---
header: 
  seq: 4796
  stamp: 
    secs: 1503524779
    nsecs: 196967000
  frame_id: /map
pose: 
  position: 
    x: 13.6759223938
    y: 18.6799850464
    z: 1.3749601841
  orientation: 
    x: -0.0244467861374
    y: 0.104162963605
    z: 0.0095151475604
    w: 0.994214209126
---
header: 
  seq: 4797
  stamp: 
    secs: 1503524779
    nsecs: 301795000
  frame_id: /map
pose: 
  position: 
    x: 13.576499939
    y: 18.6611671448
    z: 1.36879062653
  orientation: 
    x: -0.0243452249586
    y: 0.104338423512
    z: 0.0130633996685
    w: 0.994158011078
---
header: 
  seq: 4798
  stamp: 
    secs: 1503524779
    nsecs: 406643000
  frame_id: /map
pose: 
  position: 
    x: 13.4544649124
    y: 18.6483364105
    z: 1.36176240444
  orientation: 
    x: -0.0240907528582
    y: 0.10473594163
    z: 0.0143749552168
    w: 0.994104309829
---
header: 
  seq: 4799
  stamp: 
    secs: 1503524779
    nsecs: 511480000
  frame_id: /map
pose: 
  position: 
    x: 13.348405838
    y: 18.6417140961
    z: 1.35051035881
  orientation: 
    x: -0.0236773706445
    y: 0.104832261699
    z: 0.0176798720318
    w: 0.99405080411
---
header: 
  seq: 4800
  stamp: 
    secs: 1503524779
    nsecs: 616329000
  frame_id: /map
pose: 
  position: 
    x: 13.2594432831
    y: 18.6307678223
    z: 1.34167432785
  orientation: 
    x: -0.0236175202014
    y: 0.104963854025
    z: 0.0199188110204
    w: 0.993995997505
---
header: 
  seq: 4801
  stamp: 
    secs: 1503524779
    nsecs: 721141000
  frame_id: /map
pose: 
  position: 
    x: 13.1146526337
    y: 18.593919754
    z: 1.33562994003
  orientation: 
    x: -0.0237818409601
    y: 0.105335592577
    z: 0.023072011959
    w: 0.993884560319
---
header: 
  seq: 4802
  stamp: 
    secs: 1503524779
    nsecs: 825967000
  frame_id: /map
pose: 
  position: 
    x: 13.0048179626
    y: 18.6062145233
    z: 1.33564424515
  orientation: 
    x: -0.0246991101415
    y: 0.104897634938
    z: 0.0254302509781
    w: 0.993850965929
---
header: 
  seq: 4803
  stamp: 
    secs: 1503524779
    nsecs: 930835000
  frame_id: /map
pose: 
  position: 
    x: 12.9019107819
    y: 18.5893707275
    z: 1.32414102554
  orientation: 
    x: -0.0258437150384
    y: 0.104710234599
    z: 0.0283144523783
    w: 0.993763634347
---
header: 
  seq: 4804
  stamp: 
    secs: 1503524780
    nsecs:  35704000
  frame_id: /map
pose: 
  position: 
    x: 12.7833805084
    y: 18.5897712708
    z: 1.31788706779
  orientation: 
    x: -0.0259338580196
    y: 0.104871852893
    z: 0.0303221548252
    w: 0.993685008645
---
header: 
  seq: 4805
  stamp: 
    secs: 1503524780
    nsecs: 140532000
  frame_id: /map
pose: 
  position: 
    x: 12.6768045425
    y: 18.5572376251
    z: 1.31057596207
  orientation: 
    x: -0.0262440804884
    y: 0.104124477067
    z: 0.0334993561799
    w: 0.993653427836
---
header: 
  seq: 4806
  stamp: 
    secs: 1503524780
    nsecs: 245335000
  frame_id: /map
pose: 
  position: 
    x: 12.5695552826
    y: 18.5666065216
    z: 1.30429136753
  orientation: 
    x: -0.0275702456335
    y: 0.104081971163
    z: 0.0353675303901
    w: 0.99355722665
---
header: 
  seq: 4807
  stamp: 
    secs: 1503524780
    nsecs: 350190000
  frame_id: /map
pose: 
  position: 
    x: 12.4695539474
    y: 18.5704441071
    z: 1.29150879383
  orientation: 
    x: -0.0287887405867
    y: 0.102577238066
    z: 0.0383088813325
    w: 0.993570102337
---
header: 
  seq: 4808
  stamp: 
    secs: 1503524780
    nsecs: 455037000
  frame_id: /map
pose: 
  position: 
    x: 12.3256635666
    y: 18.5641841888
    z: 1.28394269943
  orientation: 
    x: -0.0300939694184
    y: 0.102000278466
    z: 0.0411180716133
    w: 0.993478535442
---
header: 
  seq: 4809
  stamp: 
    secs: 1503524780
    nsecs: 559873000
  frame_id: /map
pose: 
  position: 
    x: 12.2243318558
    y: 18.5449371338
    z: 1.26108384132
  orientation: 
    x: -0.0311962167912
    y: 0.101456773506
    z: 0.0434118432972
    w: 0.993402602689
---
header: 
  seq: 4810
  stamp: 
    secs: 1503524780
    nsecs: 664778000
  frame_id: /map
pose: 
  position: 
    x: 12.1108236313
    y: 18.5299167633
    z: 1.24005055428
  orientation: 
    x: -0.0336884917826
    y: 0.0999920712652
    z: 0.0463559166697
    w: 0.993336700316
---
header: 
  seq: 4811
  stamp: 
    secs: 1503524780
    nsecs: 769542000
  frame_id: /map
pose: 
  position: 
    x: 12.0019111633
    y: 18.504699707
    z: 1.23936462402
  orientation: 
    x: -0.0340716839784
    y: 0.100420390761
    z: 0.0489625580675
    w: 0.993155342017
---
header: 
  seq: 4812
  stamp: 
    secs: 1503524780
    nsecs: 874409000
  frame_id: /map
pose: 
  position: 
    x: 11.8279237747
    y: 18.4806785583
    z: 1.21220040321
  orientation: 
    x: -0.0356325936967
    y: 0.0998422628134
    z: 0.0515177688875
    w: 0.993029586826
---
header: 
  seq: 4813
  stamp: 
    secs: 1503524780
    nsecs: 979227000
  frame_id: /map
pose: 
  position: 
    x: 11.7090873718
    y: 18.4677696228
    z: 1.21155571938
  orientation: 
    x: -0.0366631099207
    y: 0.0986597439967
    z: 0.0543642999225
    w: 0.992958505769
---
header: 
  seq: 4814
  stamp: 
    secs: 1503524781
    nsecs:  84107000
  frame_id: /map
pose: 
  position: 
    x: 11.5763721466
    y: 18.4507026672
    z: 1.20552766323
  orientation: 
    x: -0.036059484979
    y: 0.09924372427
    z: 0.0574703659237
    w: 0.992747477346
---
header: 
  seq: 4815
  stamp: 
    secs: 1503524781
    nsecs: 188916000
  frame_id: /map
pose: 
  position: 
    x: 11.4508953094
    y: 18.439453125
    z: 1.20374751091
  orientation: 
    x: -0.0362780132942
    y: 0.100320055227
    z: 0.0609723882634
    w: 0.992422369831
---
header: 
  seq: 4816
  stamp: 
    secs: 1503524781
    nsecs: 293783000
  frame_id: /map
pose: 
  position: 
    x: 11.3404941559
    y: 18.4078941345
    z: 1.17261254787
  orientation: 
    x: -0.0375091371698
    y: 0.099782601717
    z: 0.0635705046954
    w: 0.992267750134
---
header: 
  seq: 4817
  stamp: 
    secs: 1503524781
    nsecs: 398604000
  frame_id: /map
pose: 
  position: 
    x: 11.2481365204
    y: 18.3899040222
    z: 1.18361592293
  orientation: 
    x: -0.0377573381467
    y: 0.0999655460652
    z: 0.0658931112821
    w: 0.992088388654
---
header: 
  seq: 4818
  stamp: 
    secs: 1503524781
    nsecs: 503488000
  frame_id: /map
pose: 
  position: 
    x: 11.1254396439
    y: 18.3583221436
    z: 1.17136406898
  orientation: 
    x: -0.0373089107352
    y: 0.100436068789
    z: 0.0689058768864
    w: 0.991853124911
---
header: 
  seq: 4819
  stamp: 
    secs: 1503524781
    nsecs: 608337000
  frame_id: /map
pose: 
  position: 
    x: 10.9744205475
    y: 18.3359565735
    z: 1.15649831295
  orientation: 
    x: -0.0369554278694
    y: 0.100938318256
    z: 0.0717945853238
    w: 0.991610452636
---
header: 
  seq: 4820
  stamp: 
    secs: 1503524781
    nsecs: 713149000
  frame_id: /map
pose: 
  position: 
    x: 10.8677425385
    y: 18.3163032532
    z: 1.16762888432
  orientation: 
    x: -0.0356279274948
    y: 0.101240195054
    z: 0.0747531500339
    w: 0.991409622834
---
header: 
  seq: 4821
  stamp: 
    secs: 1503524781
    nsecs: 817969000
  frame_id: /map
pose: 
  position: 
    x: 10.7803382874
    y: 18.2930030823
    z: 1.16323769093
  orientation: 
    x: -0.0356050968848
    y: 0.101302183217
    z: 0.0767209140311
    w: 0.991253774823
---
header: 
  seq: 4822
  stamp: 
    secs: 1503524781
    nsecs: 922879000
  frame_id: /map
pose: 
  position: 
    x: 10.6276931763
    y: 18.2564182281
    z: 1.16385674477
  orientation: 
    x: -0.0360585935633
    y: 0.101554291879
    z: 0.0799253515776
    w: 0.990958345142
---
header: 
  seq: 4823
  stamp: 
    secs: 1503524782
    nsecs:  27645000
  frame_id: /map
pose: 
  position: 
    x: 10.512345314
    y: 18.2372341156
    z: 1.15274238586
  orientation: 
    x: -0.0360971322472
    y: 0.100980632433
    z: 0.0825896893274
    w: 0.990797079191
---
header: 
  seq: 4824
  stamp: 
    secs: 1503524782
    nsecs: 132483000
  frame_id: /map
pose: 
  position: 
    x: 10.4102525711
    y: 18.2139415741
    z: 1.1395021677
  orientation: 
    x: -0.0361411219825
    y: 0.100930057827
    z: 0.0840948086797
    w: 0.990674015952
---
header: 
  seq: 4825
  stamp: 
    secs: 1503524782
    nsecs: 237395000
  frame_id: /map
pose: 
  position: 
    x: 10.2914733887
    y: 18.1727027893
    z: 1.13591432571
  orientation: 
    x: -0.0360341983501
    y: 0.100895721683
    z: 0.0867807893881
    w: 0.990449738497
---
header: 
  seq: 4826
  stamp: 
    secs: 1503524782
    nsecs: 342173000
  frame_id: /map
pose: 
  position: 
    x: 10.1744213104
    y: 18.1544055939
    z: 1.14980506897
  orientation: 
    x: -0.0347228152799
    y: 0.101156958361
    z: 0.0889674148005
    w: 0.99027591861
---
header: 
  seq: 4827
  stamp: 
    secs: 1503524782
    nsecs: 447027000
  frame_id: /map
pose: 
  position: 
    x: 10.0888671875
    y: 18.1237564087
    z: 1.12885951996
  orientation: 
    x: -0.0355390757536
    y: 0.100923510747
    z: 0.0903464930853
    w: 0.990145913621
---
header: 
  seq: 4828
  stamp: 
    secs: 1503524782
    nsecs: 551862000
  frame_id: /map
pose: 
  position: 
    x: 9.98925209045
    y: 18.1243934631
    z: 1.11959755421
  orientation: 
    x: -0.0360506178487
    y: 0.100836667442
    z: 0.092256119362
    w: 0.989960164801
---
header: 
  seq: 4829
  stamp: 
    secs: 1503524782
    nsecs: 656799000
  frame_id: /map
pose: 
  position: 
    x: 9.90786552429
    y: 18.1102657318
    z: 1.11963963509
  orientation: 
    x: -0.036448070611
    y: 0.100310726985
    z: 0.0932896458549
    w: 0.989902186166
---
header: 
  seq: 4830
  stamp: 
    secs: 1503524782
    nsecs: 761564000
  frame_id: /map
pose: 
  position: 
    x: 9.8242559433
    y: 18.0846042633
    z: 1.0927772522
  orientation: 
    x: -0.0380071518395
    y: 0.0995095724427
    z: 0.0945912596418
    w: 0.989800886543
---
header: 
  seq: 4831
  stamp: 
    secs: 1503524782
    nsecs: 866397000
  frame_id: /map
pose: 
  position: 
    x: 9.74603939056
    y: 18.0755367279
    z: 1.07625508308
  orientation: 
    x: -0.0397145928835
    y: 0.0996851031212
    z: 0.0955679859308
    w: 0.989622347865
---
header: 
  seq: 4832
  stamp: 
    secs: 1503524782
    nsecs: 971229000
  frame_id: /map
pose: 
  position: 
    x: 9.68534851074
    y: 18.065071106
    z: 1.08230280876
  orientation: 
    x: -0.0396371211645
    y: 0.100132499782
    z: 0.0956922324007
    w: 0.989568278479
---
header: 
  seq: 4833
  stamp: 
    secs: 1503524783
    nsecs:  76116000
  frame_id: /map
pose: 
  position: 
    x: 9.60978412628
    y: 18.0344848633
    z: 1.0744497776
  orientation: 
    x: -0.0408167384961
    y: 0.100506068796
    z: 0.0964646373047
    w: 0.989407447791
---
header: 
  seq: 4834
  stamp: 
    secs: 1503524783
    nsecs: 180912000
  frame_id: /map
pose: 
  position: 
    x: 9.53502655029
    y: 18.0438232422
    z: 1.07764112949
  orientation: 
    x: -0.0418186521039
    y: 0.101403309465
    z: 0.096672738081
    w: 0.989253734326
---
header: 
  seq: 4835
  stamp: 
    secs: 1503524783
    nsecs: 285778000
  frame_id: /map
pose: 
  position: 
    x: 9.47324562073
    y: 18.0142173767
    z: 1.05939865112
  orientation: 
    x: -0.042539538414
    y: 0.101358116263
    z: 0.0970839661242
    w: 0.989187355085
---
header: 
  seq: 4836
  stamp: 
    secs: 1503524783
    nsecs: 390689000
  frame_id: /map
pose: 
  position: 
    x: 9.41079711914
    y: 18.0023498535
    z: 1.07998251915
  orientation: 
    x: -0.0424821736076
    y: 0.102932972123
    z: 0.0974379063554
    w: 0.988992377413
---
header: 
  seq: 4837
  stamp: 
    secs: 1503524783
    nsecs: 495452000
  frame_id: /map
pose: 
  position: 
    x: 9.31995773315
    y: 17.9951095581
    z: 1.07170879841
  orientation: 
    x: -0.0429845816082
    y: 0.102339121294
    z: 0.0979453679138
    w: 0.988982171174
---
header: 
  seq: 4838
  stamp: 
    secs: 1503524783
    nsecs: 600285000
  frame_id: /map
pose: 
  position: 
    x: 9.23860645294
    y: 17.9649276733
    z: 1.07930457592
  orientation: 
    x: -0.0440807179003
    y: 0.102760633175
    z: 0.0983329341597
    w: 0.988851746542
---
header: 
  seq: 4839
  stamp: 
    secs: 1503524783
    nsecs: 705158000
  frame_id: /map
pose: 
  position: 
    x: 9.1644411087
    y: 17.949016571
    z: 1.06425631046
  orientation: 
    x: -0.0456791226974
    y: 0.102918785286
    z: 0.0988972691743
    w: 0.988706463787
---
header: 
  seq: 4840
  stamp: 
    secs: 1503524783
    nsecs: 809990000
  frame_id: /map
pose: 
  position: 
    x: 9.0925655365
    y: 17.9254436493
    z: 1.05317759514
  orientation: 
    x: -0.0461824168192
    y: 0.103407696338
    z: 0.0980232624617
    w: 0.988719107093
---
header: 
  seq: 4841
  stamp: 
    secs: 1503524783
    nsecs: 914805000
  frame_id: /map
pose: 
  position: 
    x: 9.00459003448
    y: 17.8985805511
    z: 1.03086030483
  orientation: 
    x: -0.0461635142878
    y: 0.102860052078
    z: 0.0994941622591
    w: 0.988630189359
---
header: 
  seq: 4842
  stamp: 
    secs: 1503524784
    nsecs:  19649000
  frame_id: /map
pose: 
  position: 
    x: 8.94253921509
    y: 17.884853363
    z: 1.02696704865
  orientation: 
    x: -0.0453237593453
    y: 0.102317259114
    z: 0.100244807089
    w: 0.988649540524
---
header: 
  seq: 4843
  stamp: 
    secs: 1503524784
    nsecs: 124492000
  frame_id: /map
pose: 
  position: 
    x: 8.86142444611
    y: 17.8588523865
    z: 1.02573609352
  orientation: 
    x: -0.0454190276176
    y: 0.102555821443
    z: 0.0999691443541
    w: 0.988648362966
---
header: 
  seq: 4844
  stamp: 
